,City,Lat,Lng
0,West Stockbridge,42.3343193,-73.3678369
1,Boiling Springs,40.150042,-77.1308005
2,Rougemont,36.2184752,-78.926397
3,Labadie,38.5289415,-90.8501356
4,West Valley City,40.6967254,-111.986821
5,Mundelein,42.263079,-88.0039653
6,Greenbrae,37.9485356,-122.5247031
7,Cushing,35.9848686,-96.7674179
8,Langley,48.0399806,-122.4094051
9,Lake Geneva,42.5916836,-88.4334301
10,Valley City,46.923313,-98.003155
11,Baileys Harbor,45.064993,-87.124274
12,Easley,34.8269276,-82.5817053
13,Lynden,48.9466041,-122.4569315
14,Jerome,42.7238458,-114.518808
15,Pikesville,39.3745035,-76.7227288
16,Town of Islip,40.7300685,-73.2107266
17,Daphne,30.6035255,-87.9036047
18,Green Springs,41.2561649,-83.051583
19,Glenoma,46.5145545,-122.1600994
20,Glide,43.2990591,-123.0954945
21,Asbury Park,40.2203907,-74.0120817
22,Hillside,40.701213,-74.2301459
23,Lynnville,35.3767432,-87.0061171
24,Cranford,40.6584358,-74.2995923
25,Zanesville,39.9403453,-82.0131924
26,Onalaska,46.5756273,-122.719436
27,Zillah,46.4020734,-120.261998
28,Shell,44.5355158,-107.7798127
29,Scappoose,45.7572997,-122.8743589
30,Yamhill,45.3415037,-123.1873291
31,Dania Beach,26.0524224,-80.143929
32,Sunset,41.1413377,-112.031621
33,Alta Loma,34.122887,-117.5985775
34,Delanco,40.0506669,-74.9535016
35,Ty Ty,31.4718497,-83.6468362
36,Moran,43.8417264,-110.5079823
37,Collegeville,40.1856597,-75.451571
38,Woodburn,45.143731,-122.8553725
39,Tahoe City,39.1689372,-120.143478
40,Lemont Furnace,39.9142424,-79.6697642
41,Kendall,25.6792695,-80.3172743
42,Big Falls,48.1912938,-93.8059355
43,North Wales,40.2109404,-75.2782317
44,Bentonsport,40.7264778,-91.8548274
45,City of Syracuse,43.0481221,-76.1474244
46,Damariscotta,44.0328573,-69.5186585
47,Sebago,43.8915218,-70.6986094
48,Willseyville,42.2900737,-76.3782702
49,La Selva Beach,36.936571,-121.8627775
50,Spanish Fort,30.6754503,-87.9040269
51,Monroe Township,40.3183284,-74.42021831867089
52,Waupaca,44.3580348,-89.0859464
53,Maple Shade Township,39.9526127,-74.9923915
54,Schnecksville,40.6678735,-75.6071311
55,Lohman,38.5430863,-92.3643526
56,Pauls Valley,34.7392055,-97.218509
57,North Attleborough,41.9834324,-71.3328328
58,Springvale,43.4650898,-70.7947911
59,Thompson Springs,38.9710823,-109.713735
60,Pennellville,43.2825686,-76.2704851
61,Glassboro,39.7027677,-75.1119434
62,Mableton,33.8188333,-84.5822632
63,South Beach,44.6123305,-124.0487436
64,Creedmoor,36.122741,-78.6862272
65,Mason City,40.2022663,-89.6981639
66,Gallatin Gateway,45.5916111,-111.197416
67,University Park,41.4400344,-87.683377
68,Rexburg,43.8235163,-111.7870222
69,Shellsburg,42.0944408,-91.8693468
70,Black Diamond,47.3083078,-122.0037583
71,Town of Millston,44.1930179,-90.6476354
72,North Powder,45.0284737,-117.9199386
73,Hunt Valley,39.4922608,-76.6589528
74,Ham Lake,45.2502429,-93.2499508
75,Siloam Springs,36.1881365,-94.5404962
76,Harpersfield,41.7594992,-80.9467595
77,Lotus,38.801568,-120.9085501
78,Evergreen Park,41.720136,-87.7013258
79,Government Camp,45.3041033,-121.7547596
80,Dash Point,47.3186125,-122.4284533
81,Martinsburg,39.4562528,-77.9639604
82,Rio Medina,29.4396769,-98.8841945
83,Axis,30.9299052,-88.0272209
84,Winfield,41.4053145,-87.2753119
85,Rocky Ford,38.052508,-103.7202274
86,Stanton,33.79410005,-117.99510059728792
87,Long Barn,38.0929762,-120.1343539
88,Vancleave,30.5404745,-88.6875237
89,McFarland,35.6780104,-119.2292748
90,Los Angeles,34.0536909,-118.242766
91,Camp Sherman,44.4600866,-121.6432333
92,North Bergen,40.8042674,-74.012084
93,Huddleston,37.1568109,-79.4744732
94,Fairdale,37.7815016,-81.3631596
95,Hico,38.1173327,-81.0056551
96,Bel Aire,37.7625125,-97.266988
97,Ogontz,45.8203189,-69.7131142
98,Willowick,41.633103,-81.468727
99,Darlington,39.6392741,-76.2027321
100,Village of Chaumont,44.066999,-76.130209
101,Menomonee Falls,43.1790768,-88.1170784
102,Buckingham,37.5501459,-78.5555608
103,Gordon,46.2447718,-91.7977837
104,Town of Mayfield,43.1207243,-74.260429
105,Ankeny,41.7320796,-93.605092
106,Flanders,40.8456549,-74.6948843
107,Bozrah,41.5505962,-72.168238
108,Homer Glen,41.6000318,-87.9381112
109,Aylett,37.7859741,-77.1049728
110,Kansas City,39.100105,-94.5781416
111,Southwick,42.0548167,-72.7703938
112,Horseshoe Bay,30.5442091,-98.3669797
113,Barkhamsted,41.9292629,-72.9139904
114,Upper Chichester Township,39.84326505,-75.43549516346835
115,West Fork,35.9242477,-94.1885387
116,Clemmons,36.0215258,-80.3819984
117,Midway City,33.7457982,-117.9834996
118,Wrentham,42.0667652,-71.3281114
119,Sandy Lake,41.3486674,-80.0822822
120,Worthville,41.0245095,-79.1380925
121,Thorndale,39.997333,-75.7502087
122,Radford City,37.1317924,-80.5764477
123,Mackinaw City,45.783901,-84.727828
124,Wickliffe,36.9647458,-89.0893387
125,Atwater,37.3477174,-120.609084
126,New Kensington,40.5697893,-79.7647705
127,Grand Forks,47.9078244,-97.0592028
128,Arrey,32.8487014,-107.3195359
129,Scott City,37.2167175,-89.5245336
130,New Florence,40.3803492,-79.075308
131,Saint Paris,40.1285533,-83.9591444
132,Mills,41.9461798,-77.6863796
133,Yorkville,40.7780067,-73.9482022
134,Sumner,42.8488865,-92.0970758
135,Deatsville,32.6081874,-86.3958072
136,Granite Shoals,30.589077,-98.3839153
137,Hatteras,35.219464,-75.690343
138,Moweaqua,39.6247614,-89.0189684
139,Cedar Lake,41.3647578,-87.4411473
140,Doral,25.8195424,-80.3553302
141,California City,35.125801,-117.9859038
142,Goodland,39.350833,-101.710172
143,Dale City,38.645601,-77.3364973
144,East Northport,40.8767648,-73.3245614
145,Upperville,38.9939977,-77.8847178
146,Wales Township,42.9439405,-82.68204756924891
147,Rancho Cordova,38.5890723,-121.302728
148,Girardville,40.7914769,-76.2835569
149,Temperance,41.7793387,-83.5688311
150,Nockamixon Township,40.523509149999995,-75.17092463056805
151,Biggs,39.4123876,-121.712751
152,Bellmawr,39.8676134,-75.0946183
153,Raymondville,26.4814565,-97.783051
154,Ola,35.0323119,-93.2232345
155,Gassaway,38.6732278,-80.7746622
156,Santa Catalina Island,33.38890375,-118.42392875335277
157,Obetz,39.8789527,-82.9507363
158,Weaverville,40.7309583,-122.9390168
159,Springboro,39.5522815,-84.2332718
160,Mentor-on-the-Lake,41.705045,-81.360386
161,Mineral,38.0098412,-77.9076627
162,La Follette,36.3828571,-84.1199251
163,Roche Harbor,48.6087295,-123.1519165
164,New Berlin,42.976453,-88.1090391
165,North Plains,45.5973123,-122.9936261
166,Corona de Tucson,31.9557768,-110.7726863
167,Galesburg,40.9475652,-90.3712169
168,Grand Island,43.012397449999995,-78.96981509103574
169,Little Switzerland,35.8492885,-82.0903939
170,Elkins,38.925927,-79.8466552
171,Monroe City,39.6536529,-91.7346056
172,Oak Island,33.9046184,-78.0827699
173,Bayonne,40.6687141,-74.1143091
174,Pine Mountain,32.8648522,-84.8540982
175,Elmont,40.7076444,-73.7093041
176,Magnet,38.0967299,-86.4633121
177,Cerritos,33.8644291,-118.0539323
178,Hazlet Township,40.4292165,-74.1648999
179,Walker,43.8540126,-123.0398029
180,Torrey,38.2997368,-111.42047
181,Sea Bright,40.3615488,-73.9742051
182,Hawaii,19.58955475,-155.44869830348483
183,Gold Beach,42.4074459,-124.4217418
184,Lithia Springs,33.7939953,-84.6604899
185,Vashon,47.4480496,-122.46067
186,Watkins Glen,42.3810555,-76.8705777
187,Fox Lake,42.3966874,-88.1836965
188,Manning,38.5552946,-100.7234794
189,Chicago Heights,41.5062834,-87.6357079
190,Sault Ste. Marie,46.490586,-84.359269
191,Cloquet,46.7217279,-92.4613669
192,Holmes,41.5234269,-73.646795
193,Trinity,28.185724999999998,-82.66114095772059
194,Village of Dolgeville,43.100983,-74.772949
195,Oneonta,33.9471315,-86.4714926
196,Victoria Island,37.8899253,-121.5346722
197,Folly Beach,32.6549967,-79.9406093
198,Edisto Beach,32.4793551,-80.3348229
199,Riley,43.5419253,-119.505477
200,Edwardsville,38.8114364,-89.953157
201,Folkston,30.8305818,-82.0097846
202,Forsyth,33.0342974,-83.938242
203,Line Lexington,40.2892725,-75.2610081
204,Lummi Island,48.6945706,-122.66998187943878
205,Apollo,40.5814546,-79.5664333
206,Chippewa Falls,44.9369054,-91.3929348
207,Drummond,46.3368945,-91.2579668
208,Village of Chittenango,43.0458574,-75.8692429
209,Town of Herkimer,43.0256259,-74.9859889
210,West Liberty,40.2522771,-83.7557663
211,Mount Jackson,38.7459482,-78.6422377
212,Spring Grove,39.8745437,-76.8658078
213,Dana Point,33.4669721,-117.6981075
214,Upper Salford Township,40.29398975,-75.43407528075373
215,Wikieup,34.7033462,-113.6113242
216,Waterman,41.7716963,-88.7736942
217,Cape Coral,26.6059432,-81.9806771
218,Arleta,34.2413266,-118.4322047
219,Marble,47.320494,-93.298536
220,Sneads Ferry,34.5575965,-77.38005044935358
221,Town of Whitestown,43.1350221,-75.3403594
222,Woburn,42.4792618,-71.1522766
223,Marstons Mills,41.6562249,-70.4161387
224,Euclid,41.5931049,-81.5267873
225,Kimball,42.9480851,-82.5624192
226,North Wales,40.2109404,-75.2782317
227,Village of Cold Spring,41.4200938,-73.9545831
228,Brownsburg,39.8433769,-86.3977736
229,McHenry,42.3431427,-88.2674875
230,Plum,40.5003457,-79.7494911
231,Silverton,45.0049305,-122.7832947
232,Universal City,29.5480071,-98.2911235
233,Yarmouth,43.8006354,-70.1867161
234,Greenland,43.0361995,-70.8328322
235,Manor,30.3420882,-97.555905
236,Big Spring,32.250398,-101.4787356
237,Village of Skaneateles,42.947011,-76.4291017
238,Fort Gratiot Charter Township,43.041438600000006,-82.48050609245465
239,Poca,38.4723137,-81.8142977
240,Sesser,38.0917168,-89.0503512
241,Mound House,39.212239,-119.6758129
242,Sardinia,33.8343276,-80.0828531
243,Strawberry Valley,39.564057,-121.1069018
244,Kaysville,41.0349847,-111.9383931
245,Westfir,43.7579967,-122.4946536
246,Cornell,45.1671881,-91.1493107
247,Cape Canaveral,28.4019534,-80.6046898
248,Macungie,40.5159304,-75.5551858
249,Oquawka,40.931982,-90.9470863
250,Laredo,27.5236998,-99.497352
251,Waikapu,20.8549877,-156.5035434
252,Pollock Pines,38.7612923,-120.5865935
253,Churubusco,41.2306037,-85.3194291
254,Betterton,39.3659451,-76.0621699
255,Village of Portville,42.0386764,-78.3408496
256,Mars,40.6958342,-80.011878
257,Trussville,33.6196266,-86.6084342
258,Manito,40.4258736,-89.7792762
259,Carriere,30.6168569,-89.6525648
260,Port Huron,42.9815877,-82.440466
261,Martins Ferry,40.0959055,-80.724526
262,St. Michael,45.210202,-93.6648083
263,Conestoga,39.9406555,-76.3463493
264,Yellville,36.2261815,-92.6848876
265,Mackinaw Township,45.75490585,-84.70637101501825
266,Friendswood,29.5293998,-95.2010447
267,Westmoreland,36.5619881,-86.2480443
268,Bridgewater Corners,43.5883336,-72.6561682
269,Haleiwa,21.5876272,-158.1035648
270,Carencro,30.317144,-92.0490096
271,Marina del Rey,33.9776848,-118.448647
272,Silver Spring,38.9959461,-77.0276231
273,West Sacramento,38.5804609,-121.530234
274,Wenden,33.8225302,-113.5415936
275,Pleasanton,37.6624312,-121.8746789
276,Burien,47.469918,-122.3485274
277,Everson,48.9201471,-122.3426345
278,Key Colony Beach,24.7209744,-81.0186827
279,East Amana,41.8091676,-91.8510108
280,Citrus Springs,28.9974771,-82.4706548
281,Joshua,32.4615291,-97.3880732
282,Nunnelly,35.8595101,-87.4691814
283,Harrisonburg,38.4493315,-78.8688833
284,Persia,41.5794887,-95.56894
285,Dutchtown,30.2543622,-90.9887119
286,Powhatan,36.0822925,-91.1184589
287,Forest Park,41.8794989,-87.8136997
288,Nooksack,48.9240143,-122.32366
289,Black River Falls,44.2952152,-90.8484137
290,Medicine Park,34.7274797,-98.5013644
291,Wellborn,30.2310609,-82.8195716
292,Waddell,33.6114269,-112.4271084
293,North Las Vegas,36.2005843,-115.121584
294,Pike Road,32.2843084,-86.1030169
295,Hermantown,46.8068852,-92.2382464
296,Kingsford,45.794956,-88.072071
297,Crosslake,46.6747454,-94.09306254941276
298,Arnegard,47.807797,-103.441027
299,Yulee,30.6319034,-81.6064866
300,Hobbs,32.707667,-103.1311314
301,Hardin,39.2708469,-93.8343858
302,Cool,38.8870494,-121.0157991
303,Aloha,45.4942838,-122.8670451
304,Stevenson Ranch,34.3881783,-118.5853957
305,Elverson,40.1567641,-75.8327088
306,Longboat Key,27.4125417,-82.6589881
307,Chiloquin,42.577636,-121.866126
308,Secret Town,39.1720984,-120.8800848
309,Midway,47.377758299999996,-122.29952580635825
310,Cheraw,34.6976564,-79.8833971
311,Dupont,41.3250801,-75.7454701
312,Sun City,33.7010223,-117.2027867
313,Aledo,41.1998568,-90.7486349
314,Wantage,41.24832285,-74.62453950487713
315,Thiensville,43.2375067,-87.9787001
316,Panama City Beach,30.1765914,-85.805386
317,Lincolnville,44.2811892,-69.0086453
318,Mabton,46.2148475,-119.996708
319,Village of Ilion,43.0150703,-75.0354347
320,Elverta,38.713791,-121.4627326
321,Oberlin,41.2939386,-82.2173786
322,Vermilion,41.4219889,-82.3646068
323,Folcroft,39.890946,-75.2837965
324,Cochiti,35.6076298,-106.3474887
325,Aztec,36.8220629,-107.992899
326,Key Largo,25.087035,-80.4472392
327,Pinellas Park,27.8428025,-82.6995444
328,Marinette,45.0999594,-87.6307265
329,South Williamsport,41.2320232,-76.9991341
330,Peralta,34.837038,-106.6908587
331,Fort Oglethorpe,34.9513885,-85.2414925
332,Braddock,40.4034024,-79.8683824
333,Inver Grove Heights,44.8479039,-93.0428119
334,Cudjoe Key,24.6823647,-81.4923064
335,Newburgh Heights,41.450052,-81.6634618
336,Topsail Island,34.443730900000006,-77.53021869456106
337,Town of Penfield,43.1301133,-77.4759588
338,Rancho Santa Margarita,33.6408845,-117.6029341
339,Palos Heights,41.6681632,-87.7962812
340,Pleasant View,41.3199212,-111.9887912
341,Micco,27.8639584,-80.5052124
342,American Fork,40.3768064,-111.7959146
343,Vergas,46.656626,-95.805326
344,Montverde,28.6002769,-81.673964
345,Frostproof,27.7458626,-81.5306313
346,Fort Jones,41.607158,-122.8411662
347,Citrus Heights,38.7071247,-121.2810611
348,Hope Mills,34.9704419,-78.9453056
349,Trinidad,41.059291,-124.143125
350,Granite Quarry,35.6123617,-80.4467263
351,Lake Quivira,39.037516,-94.7667361
352,Selinsgrove,40.8062437,-76.8607084
353,Spencer,35.5228433,-97.3772618
354,Trafalgar,39.4161604,-86.150823
355,Iowa Park,33.9514847,-98.6686709
356,Kamay,33.8578744,-98.8081188
357,Taylors,34.90869135,-82.29585133163584
358,Richlands,34.8993298,-77.5466343
359,Mays Landing,39.452786,-74.72469501133642
360,Boiling Spring Lakes,34.0313504,-78.0672677
361,Fordyce,33.8137161,-92.4129303
362,South Charleston,38.368429,-81.69957
363,North Potomac,39.0980055,-77.2368904
364,Severn,39.1278864,-76.6869128
365,Colonial Beach,38.2512549,-76.9628158
366,Maple Falls,48.9241939,-122.077347
367,Chariton,41.0147155,-93.3074102
368,Ruther Glen,37.9287494,-77.4558151
369,Peotone,41.3323725,-87.7850863
370,Carlinville,39.2797699,-89.8817662
371,Florissant,38.7919683,-90.3227803
372,Markham,41.5936453,-87.6947699
373,Casey,39.2993863,-87.991754
374,Richwoods,38.1603287,-90.8281886
375,Wadhams,42.9872513,-82.5385306
376,Westmont,41.7950525,-87.9751964
377,Johnsburg,42.3800209,-88.2420315
378,Valparaiso,41.4730948,-87.0611412
379,East Peoria,40.666149,-89.5800978
380,Fort Wright,39.0517272,-84.5341096
381,Pinckney,42.4567013,-83.9463359
382,Walton,38.8756194,-84.6102213
383,Cassopolis,41.9117134,-86.0100069
384,Greencastle,39.6444898,-86.8647316
385,Adams,36.5823718,-87.0655751
386,Breese,38.6106338,-89.5259341
387,Science Hill,37.1770222,-84.6357766
388,Lubec,44.860736,-66.984329
389,Altura,44.0716301,-91.9396022
390,Nickerson,41.534442,-96.470302
391,Williston,44.4374044,-73.0689621
392,Bar Harbor,44.3876378,-68.2043361
393,North Conway,44.0537103,-71.1282572
394,Elbert,39.219154,-104.5367173
395,Cambridge Township,45.606003799999996,-93.20374880888505
396,Moriarty,34.9972037,-106.0494876
397,Fort Morgan,40.2502582,-103.799951
398,St. Charles,43.9693607,-92.0659824
399,Traverse City,44.7606441,-85.6165301
400,Moorhead,46.8739081,-96.7538674
401,Pardeeville,43.5377608,-89.3001174
402,Escanaba,45.7455707,-87.0647434
403,City of Essexville,43.6153,-83.841919
404,Butte Falls,42.543184,-122.565589
405,Kenova,38.3993426,-82.5761685
406,Ortonville,42.8522506,-83.4430002
407,Plain,47.7608573,-120.6611961
408,Hoodsport,47.4059656,-123.1412411
409,Curwensville,40.9756137,-78.5250243
410,Ricetown,37.3900893,-83.6226907
411,Pocomoke City,38.075684,-75.5679832
412,Interlaken,40.2334459,-74.015693
413,Lovington,32.9442913,-103.3484348
414,Village of Dobbs Ferry,41.0145418,-73.872635
415,Coleman,45.0649843,-88.0342701
416,Bath Township,41.1687479,-81.636458
417,East Falmouth,41.5784425,-70.5586401
418,Sister Bay,45.187211,-87.120945
419,Newman Lake,47.7241586,-117.0689244
420,Lake Orion,42.7844752,-83.2396612
421,Leaf River,42.1255813,-89.4037207
422,Saugus,42.4648183,-71.010051
423,Hawaiian Ocean View Estates,19.1170658,-155.7608669
424,Mora,45.8769031,-93.2938352
425,River Falls,44.8595111,-92.6265897
426,King County,47.3871102,-122.28427616232469
427,Manly,43.2865218,-93.2025304
428,Milbank,45.219131,-96.635617
429,Hayfield,43.8906201,-92.8479006
430,Wahoo,41.2111084,-96.6197985
431,College Place,46.0491763,-118.3880417
432,Champlin,45.1888539,-93.3974538
433,Lake Mary,28.7562749,-81.322093
434,Fridley,45.0838291,-93.2590388
435,Oskaloosa,41.2951037,-92.6448451
436,Washougal,45.5819594,-122.3479921
437,Paonia,38.8683205,-107.5920018
438,Roscommon,44.49835,-84.591968
439,Mancelona,44.902229,-85.060885
440,Edgar,45.4646703,-108.8523661
441,Shoshoni,43.2355642,-108.1105154
442,Manteno,41.2506759,-87.8314299
443,Random Lake,43.55222,-87.9617585
444,Wendell,46.035516,-96.101169
445,North Plains,45.5973123,-122.9936261
446,Rhododendron,45.3295632,-121.9111906
447,Roseau,48.8457996,-95.7613231
448,Park Rapids,46.9221813,-95.0586322
449,Cokato,45.075043,-94.1903675
450,Timber,45.7198521,-123.2945718
451,Wapato,46.4476278,-120.420338
452,Plummer,47.3351803,-116.888509
453,Montebello,34.0159398,-118.111975
454,Atoka,34.383855,-96.1289831
455,Bull Shoals,36.383956,-92.5815527
456,Saint Clair Shores,42.4969652,-82.8890965
457,Chattaroy,47.8894184,-117.3578196
458,Lanagan,36.608128,-94.4477164
459,Calabasas,34.1446643,-118.644097
460,Gap Mills,37.5623469,-80.408118
461,Leslie,35.8303873,-92.5578551
462,Libby,48.3883645,-115.5558612
463,Pontiac,42.6389216,-83.2910468
464,Arcata,40.866517,-124.08284
465,Brady,31.1316876,-99.3348678
466,Sachse,32.9762327,-96.5952703
467,El Sobrante,37.9774476,-122.2949894
468,Rio Vista,38.1557502,-121.6913439
469,Round Rock,30.5085915,-97.6788056
470,Lake Odessa,42.7847564,-85.1383367
471,Elephant Butte,33.1975054,-107.2241595
472,Ashland City,36.2742207,-87.0641699
473,Rio Rico,31.4714828,-110.9764769
474,Neptune City,40.2001133,-74.0279152
475,SeaTac,47.4449086,-122.283084
476,Phenix City,32.4709761,-85.0007653
477,Hartwell,34.3528825,-82.932087
478,Tullahoma,35.3620235,-86.2094342
479,Laie,21.6438449,-157.924442
480,Tamassee,34.8803697,-83.0195938
481,Coronado,32.6915199,-117.1766947
482,Emory,32.874566,-95.7655183
483,Spiceland,39.838379,-85.4388608
484,Monroe Township,40.335756,-74.4334464
485,Frackville,40.7839774,-76.2302211
486,Natick,42.2836393,-71.346996
487,Hanceville,34.0623275,-86.7627004
488,Perth Amboy,40.5200187,-74.2745215
489,Rincon,32.2960289,-81.2353905
490,Shady Side,38.8417821,-76.5121798
491,City of Watervliet,42.7300784,-73.7012299
492,Dubach,32.6990352,-92.6568169
493,Indian Rocks Beach,27.891338,-82.84518880012078
494,Boaz,34.2006503,-86.1663655
495,Cardiff-by-the-Sea,33.0220155,-117.2803463
496,Rocky Hill,41.6648216,-72.6392587
497,Bellwood,31.172332750000002,-85.79274646105793
498,Clifton Heights,39.9292791,-75.2962972
499,Town of Clifton Park,42.8631868,-73.7812103
500,Pleasant City,39.9036834,-81.5454007
501,Rocky Hill,41.6648216,-72.6392587
502,Prattville,32.4640245,-86.4596966
503,North Stonington,41.4411845,-71.8812698
504,Shallotte,33.9732275,-78.3858371
505,The Bronx,40.8466508,-73.8785937
506,Emmetsburg,43.1108076,-94.6781897
507,Lake Mills,43.0798032,-88.9125723
508,Spirit Lake,47.9662924,-116.8685314
509,Cuyahoga Falls,41.1348213,-81.4848086
510,Spout Springs,35.2696039,-79.0597493
511,Rockford,42.2713945,-89.093966
512,Warrior,33.8401255,-86.81310019555607
513,Grand Ronde,45.060113,-123.609277
514,Central City,41.1158475,-98.0017249
515,Rohnert Park,38.3396367,-122.7010984
516,Wampum,40.8881184,-80.3381195
517,Mount Charleston,36.2594812,-115.6451164
518,Honey Brook,40.0942664,-75.9113306
519,Norton Shores,43.1689044,-86.2639461
520,New Middletown,38.16506,-86.05185863031427
521,Holualoa CDP,19.6238149,-155.9536379
522,Molalla,45.1473445,-122.5770322
523,Black Hawk,39.8011469,-105.4932708
524,Welch,44.5683003,-92.7385321
525,Coeur d'Alene,47.6742994,-116.7811531
526,Hyrum,41.63412,-111.8551944
527,Savage,47.4527932,-104.343276
528,Delray Beach,26.4614625,-80.0728201
529,Town of Marilla,42.8400596,-78.5550242
530,Lenox,31.26386,-83.46681361030994
531,Petersham,42.4883684,-72.1865591
532,Enola,40.2853013,-76.93584633801541
533,Village of Babylon,40.6956552,-73.3256753
534,Snydersville,40.9587053,-75.2925156
535,Port Republic,38.5009561,-76.5293985
536,West Paris,44.324339,-70.574112
537,Altus,34.6381255,-99.3339754
538,Dracut,42.6687673,-71.3034107
539,Dripping Springs,30.1902067,-98.0866781
540,Bixby,35.9420431,-95.8833235
541,Shelburn,39.1783743,-87.3936302
542,Hillandale,39.0264985,-76.9741424
543,Seward,60.104202,-149.442611
544,Whiteford,39.7089937,-76.3455151
545,Maxwell,41.8919322,-93.3996546
546,New Ulm,44.3140261,-94.4614177
547,Hartsburg,38.6950335,-92.3087977
548,St. John,38.0021145,-98.7601021
549,Davidsville,40.2268203,-78.9369693
550,Keystone Heights,29.7860769,-82.0314892
551,Ochopee,25.9014871,-81.3034103
552,Gassville,36.2831238,-92.4940505
553,Lowden,41.8574568,-90.9269693
554,La Verne,34.1008426,-117.7678355
555,Cook,47.852418,-92.689618
556,Sauk Centre,45.737465,-94.9525216
557,Thurman,38.9000766,-82.4457123
558,Wears Valley,35.7141453,-83.6525018
559,Hall,42.7939562,-77.066359
560,Mount Sterling,38.0561079,-83.9431961
561,McArthur,39.2464596,-82.4784898
562,Beaver,37.738448000000005,-81.14937249489144
563,Village of Trumansburg,42.5422939,-76.6660589
564,Spanishburg,37.4459511,-81.1200937
565,Wilbur,47.7587628,-118.7055589
566,Rice Lake,45.5027976,-91.7331646
567,Bullhead City,35.1477774,-114.568298
568,Tamworth,43.860277,-71.263504
569,Houlton,46.1251286,-67.8407944
570,McKinleyville,40.9465152,-124.1006205
571,Pleasant Garden,35.9621197,-79.762131
572,Kinnelon,41.0017644,-74.367096
573,Santa Claus,38.1275598,-86.9124388
574,Summerland,34.4213845,-119.5965173
575,Paradise Valley,33.5428006,-111.9556001
576,Sun Lakes,33.2111623,-111.875416
577,Holbrook,34.9037063,-110.159316
578,Juneau,58.3019496,-134.419734
579,Parksville,37.5978524,-84.8913423
580,Glen Ellyn,41.8775293,-88.0670118
581,Highland Heights,41.551995,-81.478452
582,Hancock,39.7006525,-78.1822613
583,Idaho City,43.8280309,-115.8344968
584,Whitmore Lake,42.439479,-83.7438303
585,Pickens,34.8834489,-82.7073573
586,North Idaho Falls,43.5350632,-112.043764
587,Ranchester,44.908859,-107.163411
588,Kewaunee,44.4584016,-87.5031519
589,Safety Harbor,27.9908529,-82.6931553
590,Rose Hill,34.8282235,-78.0230417
591,Northeast Heights,39.5731696,-75.9504999
592,Oakland Park,26.1723065,-80.1319893
593,Ceresco,41.0572232,-96.6447377
594,Wyndmoor,40.0812219,-75.1893436
595,Mounds View,45.1068949,-93.2075931
596,Clatskanie,46.1036879,-123.2048168
597,Los Cerrillos,35.4372052,-106.1260256
598,Cove,45.2965257,-117.8079872
599,Eloy,32.7551703,-111.5534932
600,Norway,44.214202,-70.545273
601,Joanna,34.4122225,-81.81201372169147
602,Cedar Lake,41.3647578,-87.4411473
603,Itmann,37.5734473,-81.4181586
604,Vilano Beach,29.9188576,-81.2928499
605,Morley,43.490861,-85.443928
606,Toquerville,37.2518164,-113.2853988
607,Mohnton,40.2859255,-75.9843804
608,Village of Chesaning,43.1847597,-84.1149965
609,Hale,39.6036334,-93.3424307
610,Latrobe,40.317287,-79.3840301
611,East Chicago,41.6397857,-87.4548466
612,Unity,44.8516322,-90.3165242
613,Rex,33.5920544,-84.2699218
614,Grass Lake,42.2508691,-84.2130083
615,Portage Des Sioux,38.9250486,-90.3417806
616,Lyons,44.7745664,-122.6150855
617,Rockaway Beach,45.613598,-123.943147
618,Red Springs,34.815158,-79.1837649
619,Mount Juliet,36.200055,-86.5186054
620,Council Grove,38.6609239,-96.491958
621,Lady Lake,28.9174855,-81.9228604
622,West Helena,34.5506573,-90.6417741
623,Hobart,35.0282138,-99.0959909
624,Detroit Lakes,46.817181,-95.845325
625,Hat Creek,40.8304382,-121.5135921
626,Summerset,44.1787783,-103.3341079
627,Alice,27.7522487,-98.0697249
628,Moon Township,40.5061,-80.2082
629,Sanbornton,43.489296,-71.582794
630,Cheboygan,45.646956,-84.47448
631,Poynette,43.3912031,-89.402862
632,Jenison,42.9072481,-85.7919784
633,Savanna,42.0944672,-90.1567944
634,West Bend,43.4252776,-88.1834277
635,Point MacKenzie,61.3597222,-149.9783333
636,Branson,36.6411357,-93.2175285
637,Atlas,40.7998089,-76.4277301
638,Portal,32.536246899999995,-81.9303166418949
639,Canonsburg,40.2625702,-80.1872797
640,Lincoln Park,42.2505943,-83.1785361
641,Fennville,42.5941052,-86.1045955
642,Hoback,43.331841,-110.77689227811754
643,Blackfoot,43.190039,-112.348357
644,Colfax,44.9987625,-91.7273032
645,Dacono,40.0847062,-104.939421
646,Bayfield,46.8107645,-90.8182329
647,Commerce City,39.8083196,-104.9338675
648,Brigham City,41.5110434,-112.0154991
649,Masontown,39.8467433,-79.8997755
650,South Reading,43.4751233,-72.5892678
651,Orwell,43.8039503,-73.2978936
652,Lecoma,37.7761531,-91.7309873
653,Pleasant Grove,40.3640349,-111.7386884
654,Basalt,43.315471,-112.164417
655,Fort Smith,35.3784666,-94.3996456
656,Rayland,40.1825712,-80.6911904
657,Ammon,43.4772087,-111.969726
658,McKeesport,40.3478472,-79.864215
659,North Ogden,41.3048815,-111.9650256
660,White Cloud,43.550297,-85.771997
661,Brooklyn Center,45.0748543,-93.3296296
662,La Center,45.8638734,-122.6685771
663,Fairview Heights,38.5889386,-89.990382
664,Singers Glen,38.5526212,-78.9133613
665,Dillsboro,39.0178348,-85.0588433
666,Cape May,38.933431,-74.9214226
667,Adrian,41.8975152,-84.0373054
668,Au Train Township,46.430219,-86.83682
669,DeForest,43.2477691,-89.3437277
670,Mount Olivet,38.531463,-84.036872
671,Necedah,44.0261999,-90.0737133
672,Congers,41.150651,-73.9454159
673,Scotrun,41.0659243,-75.3199055
674,Saint Francis,47.1711474,-68.8897643
675,Gasquet,41.8456954,-123.9770953
676,Othello,46.8259742,-119.175291
677,Maiden,35.5766048,-81.2139216
678,Norris,36.1956343,-84.067974
679,Tenafly,40.9253766,-73.9629154
680,Stewartstown,39.7537146,-76.5913571
681,Medicine Park,34.7274797,-98.5013644
682,Huntington Beach,33.6783336,-118.0000166
683,Sturgeon Lake,46.3811622,-92.8238459
684,Miles City,26.154255,-81.3445212
685,Spring Branch,29.8899389,-98.4252957
686,Clear Spring,39.6566586,-77.9291141
687,Lake Dallas,33.1192875,-97.0255641
688,Okmulgee,35.6234738,-95.960341
689,Wister,34.9673212,-94.7246725
690,Freer,27.8781306,-98.6142095
691,Painted Post,42.1620186,-77.0941366
692,Hoopa,41.064039,-123.685687
693,Guthrie,35.8789231,-97.4252772
694,White Pine,36.1075936,-83.2868328
695,Saco,43.5009176,-70.4428286
696,Lake Worth Beach,26.6159698,-80.0569927
697,Lady Lake,28.9174855,-81.9228604
698,Lake Elmo,45.0021685,-92.8801862
699,Clarks Summit,41.4941161,-75.703413
700,Edina,40.1675386,-92.1726821
701,Screven,31.4864151,-82.0167321
702,Jay,44.9481252,-72.4381452
703,Rothbury,43.507232,-86.347572
704,New Truxton,38.978376,-91.2379302
705,Clemville,28.9960906,-96.1410731
706,Lind,46.972091,-118.61623
707,Amery,45.3069062,-92.3621369
708,Brownville,45.307251,-69.033966
709,Port Townsend,48.1179702,-122.769544
710,Jefferson Township,40.43427425,-76.15645503891022
711,Ripley,34.7298181,-88.9506182
712,Ritzville,47.1268749,-118.380847
713,Last Chance,39.7408195,-103.5916136
714,Middleburg Heights,41.3614401,-81.812912
715,Ojai,34.4480495,-119.242889
716,Wilderville,42.3827937,-123.4662808
717,Oak Bluffs,41.4538523,-70.5684713
718,Battle Creek,42.3192548,-85.1824269
719,Archie,38.4816813,-94.3543929
720,Plymouth Township,42.3730556,-83.4927778
721,Erda,40.6127217,-112.3043923
722,Morehead,38.1839705,-83.4326841
723,Saint Maries,47.3143542,-116.562667
724,Wailea,19.8858,-155.123
725,Selden,40.8664874,-73.0356625
726,Norton,41.9667666,-71.1869939
727,Barbourville,36.8664765,-83.8888138
728,Kailua-Kona,19.641941,-155.996933
729,Bay Shore,40.7250986,-73.2453946
730,Port Hueneme,34.1477558,-119.1951559
731,Kinder,30.485479,-92.850703
732,West Yarmouth,41.6501114,-70.2411312
733,Cardiff-by-the-Sea,33.0220155,-117.2803463
734,Big Pine Key,24.6698652,-81.353969
735,Waxahachie,32.3944908,-96.8439365
736,Junction,30.4893555,-99.7720109
737,Knik,61.4577778,-149.7288889
738,Fay,35.8133797,-98.6578597
739,Skokie,42.0333694,-87.7333972
740,Grand Terrace,34.0339031,-117.313654
741,Forest,32.3645888,-89.4742348
742,Ekin,40.2169814,-86.1616581
743,Winona,32.4905867,-95.1668934
744,Export,40.4181235,-79.625599
745,Mullica Hill,39.7358605,-75.22763055416667
746,Salmon,45.1757547,-113.8959008
747,Saint Marys,39.194164,-96.0711041
748,Driggs,43.7231753,-111.110887
749,Somerton,32.5964404,-114.709677
750,Snow Hill,35.4515504,-77.6810859
751,Tomah,43.978576,-90.5040214
752,Oreana,39.9386476,-88.8656324
753,Red Lodge,45.1859038,-109.2470622
754,Cromwell,37.3403254,-86.7880462
755,Nevada City,39.2615606,-121.0160594
756,Mashpee,41.6484421,-70.4811383
757,Ocean Gate,39.9267851,-74.1337496
758,Baker City,44.7748748,-117.834384
759,Huntland,36.1033953,-85.5566444
760,Cos Cob,41.0334305,-73.5995698
761,West Memphis,35.1464797,-90.1845388
762,Comstock Park,43.0342874,-85.6655303
763,Sand Springs,36.1394339,-96.1100025
764,Rimrock,34.6450394,-111.7848411
765,Carlin,40.7127807,-116.112381
766,Berkeley,37.8708393,-122.272863
767,Rio Linda,38.6910138,-121.448565
768,Ridgeway,36.5768047,-79.8583721
769,Key Largo,25.087035,-80.4472392
770,Ararat,36.599025,-80.5106192
771,Eastaboga,33.6059367,-86.0213587
772,Goodnight,32.12182,-96.1596947
773,Ross Bridge,33.3944355,-86.8866224
774,Shady Valley,36.5190204,-81.9285818
775,Pataskala,39.9955726,-82.6742373
776,Apache,34.8936766,-98.3658875
777,Diboll,31.1871319,-94.7810412
778,Lone Jack,38.8708419,-94.1738345
779,Teaneck Township,40.8860164,-74.0072568
780,Southside,33.895979,-86.02962497644447
781,Valhalla,41.0748189,-73.7751326
782,Buckhannon,38.9939426,-80.2322698
783,Monson,45.287448,-69.501572
784,Lemasters,39.8612026,-77.8594413
785,San Marcos,33.1433723,-117.1661449
786,Leeds,44.303704,-70.119553
787,North Myrtle Beach,33.8278405,-78.6800323
788,Benton City,46.2631897,-119.487802
789,Varnville,32.8504445,-81.0792722
790,Colonial Heights,37.2555718,-77.4112016
791,Rockvale,35.7576331,-86.5312318
792,Fishersville,38.1009639,-78.9697305
793,Kenai,60.5544444,-151.258333
794,Aynor,33.9998881,-79.1994874
795,Rotonda-West,26.8578429,-82.2948169
796,Amargosa Valley,36.4951365,-116.421881
797,Waimanalo,21.346304,-157.7211
798,Lufkin,31.3386242,-94.7288558
799,Ripon,37.741595,-121.124382
800,Dalzell,34.016597000000004,-80.43574963242425
801,Tomkins Cove,41.2570383,-73.9834736
802,Siler City,35.7234734,-79.4622431
803,Pukalani,20.8355938,-156.336124
804,Village of Schaghticoke,42.9000773,-73.5853939
805,Village of Old Westbury,40.7887113,-73.5995717
806,Worthing,43.329148,-96.762826
807,Decaturville,35.5842372,-88.119479
808,Xenia,39.6847822,-83.9296526
809,Fairplain,38.7525866,-81.6859622
810,Fort McCoy,29.3649734,-81.9670322
811,Deadhorse,70.1999496,-148.461816
812,Middle Village,40.718215650000005,-73.87867154730415
813,Isleton,38.1618614,-121.61162
814,Conowingo Village,39.6523299,-76.1799534
815,Algoma,44.6107841,-87.4387358
816,Deerfield,43.11953,-75.218925
817,Swansea,41.7481575,-71.1897684
818,Dunkerton,42.5718525,-92.1617736
819,Telluride,37.9374939,-107.812285
820,Town of Brule,46.5529965,-91.5765779
821,Ordway,38.2180608,-103.7560606
822,Windsor Heights,41.6002144,-93.7087635
823,Bristolville,41.3874149,-80.8692229
824,Many Farms,36.3531019,-109.617172
825,Three Springs,40.1950811,-77.9830565
826,Fairfield Bay,35.6052619,-92.2677334
827,Danielson,41.8025986,-71.8859054
828,North Chelmsford,42.6389798,-71.3828403
829,Garretson,43.716241,-96.501138
830,Thornwood,41.1234293,-73.7790218
831,Audubon,39.8909466,-75.0729504
832,Dixmont,44.6807232,-69.1631738
833,Laurel Springs,39.8201141,-75.0062788
834,Dunnellon,29.0491426,-82.4609331
835,Littleville,34.5906483,-87.6769745
836,Central,34.7257424,-82.7804999
837,Maidens,37.6690354,-77.8819408
838,St. Francisville,38.591899999999995,-87.64705451406462
839,Fair Oaks Ranch,29.7457771,-98.6433561
840,Orange County Great Park,33.6703349,-117.7341141
841,Hazen,34.7813665,-91.5789815
842,Mission Viejo,33.5965685,-117.659405
843,Stratham,43.0244129,-70.9122808
844,Jal,32.112125,-103.1934615
845,Callahan,30.5621807,-81.8306621
846,Sugar Land,29.6196787,-95.6349463
847,Far Northeast Philadelphia,40.0870822,-75.0187125
848,Duluth,46.7729322,-92.1251218
849,Atkins,41.9968696,-91.8619127
850,Whiteriver,33.8369944,-109.964266
851,Wahiawa,21.5010609,-158.0211735
852,Helotes,29.5635688,-98.6884208
853,Concordville,39.8851109,-75.520202
854,Sandy Spring,39.1495517,-77.0269221
855,Sapelo Island,31.4774455,-81.2417611
856,Waretown,39.788423,-74.19585101496001
857,West Odessa,31.82832275,-102.48718903256065
858,North Berwick,43.3063254,-70.7343581
859,Stephenville,32.2191836,-98.2130634
860,South Ogden,41.1912782,-111.9678627
861,Bedias,30.7757486,-95.949397
862,Stayton,44.8006775,-122.794533
863,Lamesa,32.7357287,-101.9550202
864,Whiterock,37.8658429,-104.1144086
865,Quay,34.9339503,-103.7605204
866,Mattituck,40.9912115,-72.5342547
867,Chamblee,33.892176,-84.2988296
868,Grayland,46.8100926,-124.093227
869,Upper Darby,39.9284459,-75.2737955
870,Lake Wylie,35.1085916,-81.0424965
871,Hanson,42.0751013,-70.8800423
872,Land O' Lakes,28.2188992,-82.4575938
873,Madeira at Saint Augustine,29.9407019,-81.3319159
874,Fort Scott,37.8399791,-94.7082882
875,Waianae,21.446678,-158.185272
876,Harmony,40.418997,-74.1243085
877,Kelly,31.3237829,-85.6552132
878,Cornelius,35.481705,-80.8590006
879,Dumas,34.6403752,-88.8439482
880,Marksville,31.1279652,-92.0662356
881,South River,40.446495,-74.3859831
882,Townshend,43.0467867,-72.6679376
883,Elkmont,34.9289743,-86.9738959
884,Bisbee,31.4481547,-109.928408
885,Winterstown,39.8353793,-76.6180234
886,East Helena,46.5895782,-111.914593
887,Stacyville,43.4360794,-92.7824109
888,Land O' Lakes,28.2188992,-82.4575938
889,Avalon,39.101225,-74.7176622
890,Bonney Lake,47.1870191,-122.1702293
891,Greybull,44.488924,-108.0554209
892,Hamersville,38.9208781,-83.987559
893,Burlington Flats,42.7453504,-75.1829401
894,Olive Hill,38.3000809,-83.1740654
895,Scottville,43.954728,-86.280079
896,Millican,43.8790121,-120.9200119
897,Town of Putnam Valley,41.3359272,-73.8740252
898,LaSalle,41.3333679,-89.0917497
899,Lipan,32.5184682,-98.0458732
900,Estacada,45.2864689,-122.3342596
901,Twin Lakes,42.5315239,-88.2479278
902,Troy Grove,41.4663261,-89.082742
903,Herscher,41.0495316,-88.09621
904,Shidler,36.7819849,-96.6611377
905,Kansasville,42.6825181,-88.1103639
906,Independence Charter Township,42.747802449999995,-83.38932721509408
907,Coal City,41.2878097,-88.2856185
908,Anaheim Hills,33.8444082,-117.7773862
909,Valle/Grand Canyon Junction,35.6530187,-112.138431
910,Gloucester City,39.8918622,-75.1161897
911,Roosevelt Lake Gardens West,33.8505995,-111.3062422
912,Poteau,35.0568053,-94.6199966
913,Thomson,33.4707348,-82.5045956
914,Hitchcock,29.3482905,-95.0160368
915,Covington,47.3657791,-122.100222
916,Hewlett,40.6431591,-73.6956865
917,Port Orange,29.101628050000002,-81.01059617608054
918,Barnhart,38.33981850000001,-90.40676224421566
919,Point Harbor,36.0787746,-75.7946288
920,White Lake,42.6916964,-83.5541098
921,Village of Lynbrook,40.6548253,-73.6717969
922,Nanticoke,41.2052654,-76.0049353
923,Lewisport,37.9369974,-86.9022146
924,Rangely,40.0874759,-108.8048292
925,Reed Point,45.7077427,-109.5449833
926,Castaic,34.4826899,-118.6307097
927,Sea Ranch,38.7149778,-123.455009
928,Westford,42.5792583,-71.4378411
929,Joppatowne,39.4156237,-76.3592511
930,Iglesia Adventista Del Septimo Dia,31.8118355,-102.3614383
931,Grants Pass,42.4393707,-123.3272489
932,Harrod,40.7078067,-83.9210724
933,Arbutus,39.2474276,-76.6936144
934,Preston,41.5268022,-71.982138
935,Pineora,32.28787455,-81.39358468070569
936,Natchez,31.5604076,-91.403171
937,Rayville,32.4746949,-91.7568292
938,Brooklyn,41.4398,-81.7406
939,Combes,26.2486851,-97.7338816
940,Lizton,39.8867109,-86.5433345
941,Norco,33.9323307,-117.5508901
942,Seymour,35.8704536,-83.7571149
943,Katy,29.7857853,-95.8243956
944,Lyndora,40.8501351,-79.9160635
945,Cross Plains,32.1262459,-99.1654444
946,Tierra Amarilla,36.7001374,-106.5497405
947,Esko,46.6962749,-92.3649597
948,Coosada,32.4979127,-86.3313602
949,Kaplan,30.0031884,-92.2860146
950,La Vista,41.1832679,-96.0324044
951,Halls,35.8756298,-89.3961835
952,Mena,34.5837324,-94.2376664
953,Buckfield,44.289944,-70.365372
954,Mountain Home,36.3361391,-92.3801187
955,Lincoln City,44.9617922,-124.0159522
956,Dayville,44.4682007,-119.5358104
957,Litchfield Beach,33.4668348,-79.0997632
958,Zavalla,31.1585242,-94.4263124
959,Washington,40.17396,-80.2461714
960,Ledyard,41.4386053,-72.0175193
961,West Terre Haute,39.4650363,-87.450021
962,Natrona Heights,40.6232405,-79.7297287
963,Saint Croix,38.2239489,-86.5863736
964,Pell Lake,42.5380735,-88.3509273
965,St. Clair,38.3453291,-90.9809735
966,Sinton,28.034685,-97.5085762
967,La Conchita,34.3641804,-119.4478558
968,James Island,32.7276779,-79.9556455
969,Euharlee,34.1448193,-84.9329986
970,Mayfield Heights,41.5192189,-81.457896
971,South Plainfield,40.5792701,-74.4115401
972,Wallagrass,47.1294837,-68.5972677
973,Trimont,43.7621774,-94.7072
974,Souderton,40.3117707,-75.3251759
975,Hartford City,40.4511541,-85.369972
976,Sparrows Point,39.219275,-76.4760724
977,Town of Rush,42.9958962,-77.6455564
978,Woolwich,43.919164,-69.801636
979,McLeansville,36.1073575,-79.6586383
980,Cherokee Village,36.295861,-91.5419811
981,Raeford,34.9809996,-79.2241998
982,Wright City,38.8275491,-91.0201422
983,Kenna,38.6763437,-81.6600206
984,Nitro,38.417919499999996,-81.84361448523134
985,Lake Harmony,41.0605209,-75.5916339
986,Netcong,40.8989877,-74.7065516
987,Sims,35.76074,-78.0594124
988,Terre Haute,39.4667025,-87.4139119
989,Williams Township,40.63160995,-75.22915169524987
990,Pine Hill,39.7842813,-74.9921108
991,Lake Elsinore,33.6680772,-117.3272615
992,Lordstown,41.165613,-80.857585
993,Pocono Pines,41.115478499999995,-75.44954822211182
994,Stephens City,39.0832225,-78.2182851
995,Milaca,45.755799,-93.6544079
996,Haiku,20.9143904,-156.32296
997,Pico Rivera,33.9830688,-118.096735
998,Wilkesboro,36.145965,-81.1606401
999,Wild Rose,44.1785884,-89.2490065
1000,Creve Coeur,38.6613007,-90.4423653
1001,Marthasville,38.6284046,-91.0572578
1002,Bonduel,44.7402679,-88.4448243
1003,Iola,44.5080338,-89.1306665
1004,Gaylord,39.6439,-98.847578
1005,Rich Hill,38.0964191,-94.3610616
1006,Falcon,35.193406499999995,-78.64890721875
1007,Rio,43.4477634,-89.2398379
1008,Winnetoon,42.513744,-97.9609016
1009,Chilton,31.2835075,-97.0611833
1010,Coon Valley,43.7021922,-91.0131863
1011,Crete,40.628143,-96.961372
1012,Fort Lewis,47.1086912,-122.554979
1013,Homeland,33.7412113,-117.108626
1014,Bouse,33.9325235,-114.0057748
1015,Village of Great Neck,40.8006567,-73.7284647
1016,Chicago,41.8755616,-87.6244212
1017,Kathleen,32.495294,-83.6099696
1018,Woodfords,38.7757093,-119.823807
1019,Tuscan Ranch,32.59801775,-114.57095171276923
1020,Calhan,39.0355459,-104.297186
1021,Nageezi,36.246768,-107.75556389291046
1022,Wataga,41.0253155,-90.2798475
1023,Lusby,38.3721012,-76.4412805
1024,Mohave Valley,34.9827252,-114.589433
1025,Bradley,41.1421905,-87.8613221
1026,Freehold Borough,40.2601096,-74.2737573
1027,La Feria,26.1588627,-97.8238428
1028,El Paso,31.7865623,-106.441207
1029,Morgan Hill,37.130408,-121.6544974
1030,Village of Patchogue,40.7656539,-73.0151084
1031,Lake Las Vegas,36.1022628,-114.9315744
1032,Green Bay,44.5126379,-88.0125794
1033,Sandy Springs,33.9242688,-84.3785379
1034,Nitra,48.31295,18.0894593
1035,Havana,35.1112128,-93.528936
1036,Tarentum,40.6014555,-79.7597709
1037,Swannanoa,35.600579499999995,-82.38770150253882
1038,Gainesboro,36.355428,-85.6588652
1039,Oro Grande,34.5988813,-117.3342134
1040,Paterson,40.9167654,-74.171811
1041,Jackson Springs,35.2095948,-79.6258705
1042,Ellijay,34.6950278,-84.4827394
1043,Tarboro,35.8968236,-77.5358049
1044,Carr Lane,36.5078447,-93.5657444
1045,Wai ªehu,20.9208377,-156.4956999
1046,Bokoshe,35.1888272,-94.7895702
1047,Kapaau CDP,20.231275,-155.797806
1048,Chickasha,35.0421234,-97.9440297
1049,Fair Play,38.5935173,-120.6604855
1050,Coto de Caza,33.6037312,-117.586958
1051,Pioneertown,34.1557575,-116.4962719
1052,Dutton,37.4979152,-76.4574477
1053,Bunn,35.959537,-78.2543185
1054,Lake Los Angeles,34.6124905,-117.828119
1055,North Platte,41.1238873,-100.7654232
1056,Playa Vista,33.9760102,-118.4181654
1057,Lumberport,39.3739761,-80.3484217
1058,Blountstown,30.4435293,-85.0451953
1059,Fort Seward,40.222922,-123.6433637
1060,Princess Anne,38.2028428,-75.6920008
1061,Scandia,39.794452,-97.783654
1062,San Jose,37.3361663,-121.890591
1063,Wells,41.1107264,-114.963144
1064,Royal Oaks,36.8388052,-121.6701812
1065,Cocolalla,48.1079655,-116.6174178
1066,Woodcliff Lake,41.0234304,-74.0665297
1067,Havre de Grace,39.5491329,-76.095817
1068,Galloway,39.9139207,-83.1633336
1069,Laurence Harbor,40.447668,-74.24714527016499
1070,Radcliff,37.8403456,-85.9491298
1071,Maurice River Township,39.31470455,-74.93535483024773
1072,Dudley,42.0456113,-71.9299051
1073,South Park,33.180397,-87.5394503
1074,Long Lane,37.6114305,-92.9093477
1075,Pittsburgh,40.4417,-79.9901
1076,Sherrard,41.318924,-90.505966
1077,Taylor Flat,40.8881898,-109.1787333
1078,Yorba Linda,33.8901096,-117.8249705
1079,Emerson,40.976209,-74.0262505
1080,Big Rock,36.5806054,-87.7600191
1081,Barneveld,43.272456,-75.190086
1082,Goodspring,35.1434145,-87.1013997
1083,Athol,42.594001,-72.2268141
1084,Billerica,42.5584264,-71.268947
1085,Elmwood Park,41.9205931,-87.8160169
1086,Fort Gibson,35.7975463,-95.2503409
1087,Bell,29.7555125,-82.8626239
1088,Harrington,38.9237244,-75.5777033
1089,Santo Domingo Pueblo / Kewa,35.5133066,-106.3642859
1090,Village of Corfu,42.9600595,-78.4055767
1091,Thurmont,39.6237094,-77.4108201
1092,Woodruff,45.896342,-89.699037
1093,Amity,45.1180619,-123.2055827
1094,Phillipsville,40.2090317,-123.785866
1095,Wemme,45.34873,-121.9659137
1096,Siloam,36.2859714,-80.5625602
1097,Mira Loma,33.9863913,-117.5227325
1098,Baxter Springs,37.0236759,-94.7355042
1099,Elroy,43.7408049,-90.272351
1100,Bar Nunn,42.913577,-106.343361
1101,Lesage,38.5064731,-82.2984823
1102,Sunapee,43.3874008,-72.0877198
1103,Barham Ranch,34.7279102,-120.220567
1104,Thornville,39.896454,-82.4201539
1105,Palermo,39.4354432,-121.538024
1106,Honesdale,41.5767552,-75.2587871
1107,Catonsville,39.2720504,-76.7318456
1108,Gurley,34.7017558,-86.3758201
1109,North Little Rock,34.769536,-92.2670941
1110,Poland,41.024226,-80.614795
1111,Bloomfield Hills,42.583645,-83.2454883
1112,Vidalia,32.2176855,-82.4134614
1113,North Charleston,32.8546197,-79.9748103
1114,Bandera,29.7270068,-99.0724586
1115,Old Orchard Beach,43.517684,-70.377731
1116,Willoughby,41.6397696,-81.4065011
1117,Pennington,47.4835642,-94.4799693
1118,Yosemite,37.346742,-84.8246715
1119,Scottsdale,33.4942189,-111.9260184
1120,Black Mountain,35.612202499999995,-82.33168739828443
1121,Stanhope,42.2888675,-93.7960553
1122,Rosemary Beach,30.2802919,-86.015565
1123,Hardeeville,32.2802665,-81.0726108
1124,Tolleson,33.4500497,-112.2593093
1125,Sea Girt,40.1320592,-74.0345813
1126,Malden,42.4250964,-71.066163
1127,Palmer Township,40.700542,-75.26025903662031
1128,Eustis,28.8527675,-81.6853534
1129,Beardstown,40.0175483,-90.4242916
1130,Roscoe,41.9331441,-74.9134961
1131,Village of Clayville,42.98007,-75.2509966
1132,Sharpsburg,33.3392842,-84.6485417
1133,Tiptonville,36.3783984,-89.4720193
1134,Hawley,41.4759224,-75.1821189
1135,Central Valley,41.3317605,-74.120978
1136,Crested Butte,38.8698201,-106.984043
1137,Malakoff,32.1695965,-96.0124678
1138,University Place,47.2368034,-122.552067
1139,Chantilly,38.8941543,-77.4311513
1140,Ponce de Leon,30.7229671,-85.9374357
1141,Elkwood,38.5117916,-77.8558276
1142,Farragut,35.8845238,-84.1535261
1143,South Orchard,30.4624189,-88.16889
1144,Carterville,37.7597872,-89.0774278
1145,Moberly,39.4201137,-92.4364298
1146,Chest Springs,40.5800683,-78.6069644
1147,Inkster,42.2942045,-83.3099303
1148,Bohners Lake,42.623073,-88.2803694
1149,Town of Mexico,43.459514,-76.228818
1150,Southpark,30.2131857,-97.7495651
1151,Huttonsville,38.7133626,-79.978777
1152,Honaker,37.016222,-81.9742921
1153,Lucas,39.058245,-98.537765
1154,Rocky Mount,35.9423833,-77.7956949
1155,Carroll,39.7989528,-82.7010016
1156,Pittston,44.2217367,-69.7555995
1157,Colts Neck Township,40.2876108,-74.1723652
1158,Colts Neck Township,40.2876108,-74.1723652
1159,Findlay,41.0413873,-83.6503982
1160,Morgan City,34.4720365,-86.5697136
1161,Norwell,42.1617681,-70.7939307
1162,Milpitas,37.4332273,-121.8989248
1163,Campti,31.8934954,-93.1182202
1164,Bondurant,41.7005441,-93.462157
1165,Veedersburg,40.1130947,-87.2625101
1166,Village of Larchmont,40.9278769,-73.7517983
1167,Central Falls,41.8906553,-71.3922785
1168,South Pasadena,34.1133062,-118.1478291
1169,Gibsonia,40.6300671,-79.9695004
1170,Loganton,41.034326500000006,-77.30428016193692
1171,Mount Penn,40.3281484,-75.8907603
1172,Royersford,40.1842688,-75.5379639
1173,Ravenna,41.157557,-81.242047
1174,Mickleton,39.7901134,-75.2376834
1175,Sisterdale,29.9757312,-98.7215681
1176,Fogelsville,40.5831514,-75.6326882
1177,Tabernacle,38.9840016,-74.9051719
1178,Hainesport,39.9837234,-74.8271081
1179,Pandora,40.9481079,-83.9610538
1180,Maineville,39.315134,-84.2209419
1181,Trail,42.6484582,-122.8105998
1182,DeQuincy,30.4504779,-93.4332189
1183,Camargo,37.9942469,-83.8876978
1184,Virden,39.5008866,-89.7678747
1185,Hayfork,40.5543106,-123.1830839
1186,Denham Springs,30.4868564,-90.9562125
1187,Ecru,34.3531595,-89.0231192
1188,Packwood,41.1328058,-92.0847853
1189,New Carrollton,38.9698329,-76.8799727
1190,Y City,34.7348248,-94.0771521
1191,Port Saint Lucie,27.2939333,-80.3503283
1192,Riverbank,37.7360396,-120.9354895
1193,Simpson,41.5917495,-75.4851837
1194,Lochbuie,40.0111126,-104.716359
1195,Brierfield,33.0390099,-86.908879
1196,Slocum,31.6312864,-95.4621725
1197,Alva,36.8030501,-98.6660278
1198,Bonne Terre,37.9247678,-90.5510587
1199,Peachtree City,33.3967829,-84.5957629
1200,Burton,30.1821602,-96.5955277
1201,Ranchos de Taos,36.3594292,-105.6085234
1202,Cabool,37.123941,-92.1012678
1203,Peachtree City,33.3967829,-84.5957629
1204,Madawaska,47.355571,-68.321915
1205,Livermore Falls,44.4753426,-70.188114
1206,Van Alstyne,33.4220266,-96.5764834
1207,West Palm Beach,26.715364,-80.0532942
1208,Pass Christian,30.3157527,-89.247543
1209,Hawkinsville,32.2839257,-83.4719948
1210,East Mountain,32.593754,-94.8554918
1211,Mills River,35.3884479,-82.566789
1212,Aliso Viejo,33.5761376,-117.7258122
1213,Mantua,41.283944,-81.223991
1214,Wadesville,38.1025438,-87.7861367
